City_ID,City,Lat,Lng,Max Temp,Humidity,Cloudiness,Wind Speed,Country,Date
0,bethel,41.3712,-73.414,44.69,83,100,1.01,US,1713521835
1,hermanus,-34.4187,19.2345,75.79,62,100,4.03,ZA,1713521957
2,olonkinbyen,70.9221,-8.7187,25.54,69,100,28.9,SJ,1713521958
3,sungailiat,-1.85,106.1333,84.33,76,80,3.71,ID,1713521959
4,port alfred,-33.5906,26.891,72.18,85,33,1.99,ZA,1713521959
5,vilyuchinsk,52.9306,158.4028,36.25,94,98,1.32,RU,1713521960
6,longyearbyen,78.2186,15.6401,30.04,59,75,5.75,SJ,1713521963
7,timbuktu,16.7735,-3.0074,97.32,5,55,15.01,ML,1713521964
8,grytviken,-54.2811,-36.5092,41.85,99,98,6.06,GS,1713521855
9,stanley,54.868,-1.6985,48.22,53,20,14.97,GB,1713521966
10,ushuaia,-54.8,-68.3,38.86,87,100,16.11,AR,1713521967
11,edinburgh of the seven seas,-37.0676,-12.3116,58.3,67,82,30.58,SH,1713521967
12,bodo,67.28,14.405,39.94,45,0,18.41,NO,1713521957
13,bridgetown,13.1,-59.6167,77.49,88,75,11.5,BB,1713521968
14,kingston,17.997,-76.7936,79.75,85,20,4.61,JM,1713521971
15,arraial do cabo,-22.9661,-42.0278,71.46,83,75,14.97,BR,1713521972
16,margaret river,-33.95,115.0667,69.03,57,12,6.13,AU,1713521973
17,misrikh,27.45,80.5167,107.31,10,1,19.3,IN,1713521702
18,badger,64.8,-147.5333,33.67,67,0,5.75,US,1713521975
19,labytnangi,66.6572,66.4183,14.38,81,87,3.2,RU,1713521979
20,wailua homesteads,22.0669,-159.378,72.03,89,75,19.57,US,1713521982
21,thompson,55.7435,-97.8558,17.69,94,100,14.27,CA,1713521983
22,corner brook,48.9667,-57.9484,31.21,71,36,6.4,CA,1713521807
23,west island,-12.1568,96.8225,84.18,70,40,13.8,CC,1713521984
24,rongelap,11.1635,166.8941,80.91,84,23,21.99,MH,1713521984
25,udachny,66.4167,112.4,31.44,89,61,18.86,RU,1713521985
26,pandan,14.0453,124.1694,81.14,80,64,7.43,PH,1713521986
27,robertsport,6.7533,-11.3686,85.46,74,94,4.12,LR,1713521986
28,leh,34.1667,77.5833,40.96,49,62,2.98,IN,1713521815
29,avarua,-21.2078,-159.775,77.05,100,75,2.3,CK,1713521988
30,selfoss,63.9331,-20.9971,33.04,61,96,4.63,IS,1713521988
31,bilibino,68.0546,166.4372,19.74,96,100,2.08,RU,1713521989
32,sitka,57.0531,-135.33,51.69,40,0,11.5,US,1713521989
33,thunder bay,48.4001,-89.3168,32.4,74,91,10.65,CA,1713521775
34,juneau,58.3019,-134.4197,30.2,80,0,0.0,US,1713521736
35,fryanovo,56.1333,38.45,56.91,71,90,17.56,RU,1713521991
36,puerto natales,-51.7236,-72.4875,40.41,91,100,6.91,CL,1713521724
37,holualoa,19.6228,-155.9522,71.44,53,0,0.0,US,1713521992
38,ust-nera,64.5667,143.2,16.45,85,39,1.19,RU,1713521993
39,tiksi,71.6872,128.8694,10.15,94,52,5.91,RU,1713521993
40,tazovsky,67.4667,78.7,4.32,90,100,20.98,RU,1713521994
41,frolovo,49.7713,43.6622,62.38,58,100,14.0,RU,1713521995
42,tralee,52.2704,-9.7026,50.25,100,100,8.05,IE,1713521995
43,lompoc,34.6391,-120.4579,55.78,89,100,1.99,US,1713521996
44,afaahiti,-17.75,-149.2833,78.67,80,77,16.04,PF,1713521997
45,laguna,38.421,-121.4238,63.09,80,0,4.61,US,1713521997
46,hualien city,23.9769,121.6044,77.04,87,75,3.67,TW,1713521977
47,axim,4.8699,-2.2405,88.07,69,84,8.28,GH,1713521912
48,xiulin,29.7167,112.4,64.04,89,100,12.8,CN,1713521703
49,ilulissat,69.2167,-51.1,19.42,86,75,6.91,GL,1713522000
50,nguigmi,14.2495,13.1092,98.94,14,100,13.0,NE,1713521995
51,gokwe,-18.2048,28.9349,83.79,27,0,5.66,ZW,1713522001
52,port-aux-francais,-49.35,70.2167,38.84,68,15,38.16,TF,1713522002
53,anadyr,64.75,177.4833,1.9,77,0,11.18,RU,1713522003
54,jamestown,42.097,-79.2353,55.71,97,0,8.05,US,1713521762
55,punta arenas,-53.15,-70.9167,44.71,87,100,5.75,CL,1713522004
56,bandarbeyla,9.4942,50.8122,87.55,68,100,14.05,SO,1713522005
57,luderitz,-26.6481,15.1594,69.42,65,46,10.78,NA,1713521997
58,tyuratam,45.6507,63.3156,84.87,20,4,25.23,KZ,1713522006
59,price,39.5994,-110.8107,47.12,45,0,3.44,US,1713522006
60,tshabong,-26.05,22.45,81.05,30,42,7.76,BW,1713522007
61,greymouth,-42.4667,171.2,50.18,88,96,4.18,NZ,1713522008
62,albany,42.6001,-73.9662,44.02,79,86,1.01,US,1713522008
63,atafu village,-8.5421,-172.5159,85.28,74,35,13.58,TK,1713522009
64,vodnyy,63.5046,53.4095,26.42,84,100,7.38,RU,1713522009
65,blackmans bay,-43.0167,147.3167,48.52,84,64,1.01,AU,1713522010
66,iqaluit,63.7506,-68.5145,-3.78,94,36,8.55,CA,1713521888
67,saipan,15.1355,145.701,83.1,78,20,8.05,MP,1713521724
68,port elizabeth,-33.918,25.5701,82.09,74,0,12.66,ZA,1713521968
69,ribeira grande,38.5167,-28.7,63.77,88,75,13.8,PT,1713522012
70,malango,-2.9627,119.9001,71.87,97,100,0.72,ID,1713522013
71,iuna,-20.3458,-41.5358,61.36,97,100,3.85,BR,1713522013
72,akjoujt,19.6969,-14.4164,93.99,6,43,14.0,MR,1713522014
73,port lincoln,-34.7333,135.8667,59.14,73,0,16.51,AU,1713522015
74,parkes,-33.1333,148.1833,56.35,70,96,1.28,AU,1713522015
75,adamstown,-25.066,-130.1015,72.54,64,59,22.97,PN,1713522016
76,birobidzhan,48.8,132.95,42.82,91,100,6.87,RU,1713522016
77,amontada,-3.3617,-39.8317,77.11,94,100,2.66,BR,1713522017
78,blenheim,-41.516,173.9528,50.61,70,74,5.5,NZ,1713521917
79,lamu,-2.2717,40.902,82.94,79,95,16.49,KE,1713522019
80,remire-montjoly,4.9167,-52.2667,77.04,94,100,2.3,GF,1713522019
81,san julian,21.0167,-102.1667,61.66,27,7,1.88,MX,1713522020
82,talnakh,69.4865,88.3972,29.21,100,100,5.95,RU,1713522004
83,lebu,-37.6167,-73.65,53.53,84,100,1.92,CL,1713522021
84,es castell,39.8795,4.2854,61.48,39,0,17.27,ES,1713522022
85,alesund,62.4723,6.1549,49.12,53,75,4.61,NO,1713522023
86,klyuchi,52.2667,79.1667,64.36,45,86,12.77,RU,1713522023
87,ta`u,-14.2336,-169.5144,84.61,76,34,13.0,AS,1713522025
88,yellowknife,62.456,-114.3525,24.42,80,76,7.4,CA,1713522026
89,meadville,41.6414,-80.1515,56.98,80,100,8.05,US,1713522027
90,port augusta,-32.5,137.7667,63.28,57,0,19.48,AU,1713522028
91,harper,4.375,-7.7169,87.58,69,62,9.66,LR,1713522028
92,lazaro cardenas,17.9583,-102.2,71.47,87,1,3.15,MX,1713522029
93,waitangi,-43.9535,-176.5597,56.82,95,70,9.33,NZ,1713522030
94,puerto rosario,-24.45,-57.0833,54.97,72,1,3.47,PY,1713522030
95,bredasdorp,-34.5322,20.0403,74.19,58,98,4.47,ZA,1713521770
96,quesnel,52.9999,-122.5029,29.39,67,32,1.66,CA,1713522032
97,kharan,28.5833,65.4167,71.08,45,70,5.91,PK,1713522032
98,ambositra,-20.5167,47.25,72.07,52,99,4.56,MG,1713521991
99,fort mcmurray,56.7268,-111.381,17.15,93,23,1.74,CA,1713521763
100,constantia,44.1833,28.65,56.08,64,64,5.75,RO,1713522034
101,al wajh,26.2455,36.4525,82.35,65,0,16.11,SA,1713522036
102,tura,25.5198,90.2201,99.07,14,0,8.84,IN,1713521926
103,okhotsk,59.3833,143.3,32.68,95,97,4.23,RU,1713522037
104,port mathurin,-19.6833,63.4167,79.11,63,97,18.75,MU,1713522038
105,nemuro,43.3236,145.575,36.52,96,100,21.18,JP,1713522038
106,pacific grove,36.6177,-121.9166,53.02,86,100,5.75,US,1713522039
107,revda,56.801,59.9303,71.26,46,96,8.63,RU,1713522040
108,puerto ayora,-0.7393,-90.3518,73.54,98,100,1.99,EC,1713522041
109,amahai,-3.3333,128.9167,80.28,87,98,5.75,ID,1713522041
110,sassandra,4.95,-6.0833,88.11,67,86,8.68,CI,1713522042
111,chonchi,-42.6128,-73.8092,47.41,83,96,8.61,CL,1713522043
112,alice springs,-23.7,133.8833,60.35,33,0,6.91,AU,1713522043
113,borogontsy,62.6683,131.1683,33.03,92,100,4.25,RU,1713522044
114,kodiak,57.79,-152.4072,40.51,100,100,14.97,US,1713522045
115,jabor,5.921,169.6434,83.14,85,21,18.59,MH,1713522045
116,igarka,67.4667,86.5833,23.02,93,100,14.0,RU,1713522046
117,aasiaat,68.7098,-52.8699,11.48,94,96,6.2,GL,1713522046
118,papatowai,-46.5619,169.4708,45.81,86,97,3.65,NZ,1713522047
119,merizo village,13.2658,144.6691,82.98,91,84,11.36,GU,1713522048
120,katsuren-haebaru,26.3369,127.8719,73.42,66,40,6.91,JP,1713521871
121,minas de marcona,-15.2119,-75.1103,59.92,87,83,4.76,PE,1713522049
122,tselinnoye,53.0833,85.6667,55.78,51,77,17.6,RU,1713522049
123,warrnambool,-38.3833,142.4833,55.56,75,37,12.24,AU,1713521906
124,eirunepe,-6.6603,-69.8736,71.35,100,97,1.59,BR,1713521769
125,callao,-12.0667,-77.15,67.71,82,0,8.05,PE,1713522051
126,skovorodino,53.9833,123.9167,36.14,71,100,2.48,RU,1713521939
127,tadine,-21.55,167.8833,76.41,83,100,12.97,NC,1713522052
128,"laikit, laikit ii (dimembe)",1.4792,124.9735,79.65,78,20,1.14,ID,1713522053
129,barcelos,41.5388,-8.6151,69.94,38,8,5.39,PT,1713522054
130,sittwe,20.15,92.9,86.92,70,61,14.32,MM,1713522054
131,puerto baquerizo moreno,-0.9,-89.6,75.83,90,87,7.45,EC,1713522055
132,chui,-33.6971,-53.4616,53.67,92,14,5.61,UY,1713521859
133,sucre,-19.0333,-65.2627,50.04,93,30,2.77,BO,1713522056
134,alice town,25.7167,-79.3,74.12,79,38,7.67,BS,1713522056
135,iguape,-24.7081,-47.5553,62.04,91,7,3.94,BR,1713522057
136,techiman,7.5862,-1.9414,90.27,51,94,5.99,GH,1713522058
137,burao,9.5221,45.5336,89.2,37,94,9.44,SO,1713522060
138,hithadhoo,-0.6,73.0833,83.89,75,92,6.02,MV,1713522060
139,uturoa,-16.7333,-151.4333,82.67,78,57,13.82,PF,1713522062
140,arkhangel'sk,64.5401,40.5433,26.71,63,100,11.18,RU,1713522063
141,dudinka,69.4058,86.1778,29.68,97,100,11.99,RU,1713522063
142,sechura,-5.5569,-80.8222,71.49,75,100,8.84,PE,1713521793
143,cody,44.5263,-109.0565,27.91,65,100,10.36,US,1713522065
144,strathalbyn,-35.2667,138.9,58.89,76,2,12.19,AU,1713522066
145,wanning,18.8003,110.3967,82.85,77,1,14.97,CN,1713522066
146,touros,-5.1989,-35.4608,80.71,87,94,9.17,BR,1713522067
147,chibougamau,49.9168,-74.3659,38.05,97,100,8.93,CA,1713522068
148,novodvinsk,64.4165,40.8122,26.35,75,100,10.22,RU,1713521880
149,isangel,-19.55,169.2667,78.42,88,99,10.85,VU,1713522069
150,sovetskiy,61.3614,63.5842,28.89,86,100,3.0,RU,1713522070
151,cambria,35.5641,-121.0808,53.22,100,91,1.99,US,1713522070
152,oranjemund,-28.55,16.4333,64.0,75,34,7.94,NA,1713522007
153,iowa park,33.9515,-98.6687,55.26,67,100,17.27,US,1713522072
154,walvis bay,-22.9575,14.5053,68.95,64,0,9.22,NA,1713521779
155,rabaul,-4.1967,152.1721,83.25,76,23,4.05,PG,1713522073
156,college,64.8569,-147.8028,33.75,66,20,5.75,US,1713522073
157,north bend,43.4065,-124.2243,46.85,87,0,6.91,US,1713522074
158,lakhdenpokh'ya,61.5198,30.1992,26.74,64,100,14.12,RU,1713522075
159,najran,17.4924,44.1277,92.05,23,2,0.29,SA,1713522075
160,pemba,-12.974,40.5178,88.5,66,20,16.11,MZ,1713522076
161,antonio enes,-16.2325,39.9086,85.12,68,84,9.33,MZ,1713522077
162,crane,31.3974,-102.3501,56.23,59,97,18.5,US,1713522077
163,rio preto da eva,-2.6994,-59.6997,73.6,98,100,0.65,BR,1713522079
164,mulayjah,27.271,48.4242,93.63,13,0,2.55,SA,1713522079
165,kurayoshi,35.4333,133.8167,60.71,68,7,0.89,JP,1713522080
166,brokopondo,4.75,-55.1667,76.78,93,99,6.13,SR,1713521900
167,yazd,31.8972,54.3675,78.91,18,20,9.22,IR,1713522081
168,san patricio,28.017,-97.5169,76.84,97,56,6.78,US,1713522082
169,weno,7.4515,151.8468,80.55,89,100,4.61,FM,1713522082
170,gadzhiyevo,69.2551,33.3362,17.38,73,3,13.11,RU,1713522083
171,st. john's,47.5649,-52.7093,35.67,97,100,15.99,CA,1713522084
172,isafjordur,66.0755,-23.124,28.44,54,0,3.44,IS,1713522084
173,ma'an,26.9775,110.7211,80.76,68,16,5.14,CN,1713522087
174,vila do maio,15.1333,-23.2167,86.79,82,10,11.32,CV,1713522088
175,puerto deseado,-47.7503,-65.8938,50.7,52,69,15.86,AR,1713522088
176,sejenane,37.0572,9.2381,59.95,55,70,23.17,TN,1713522089
177,hawaiian paradise park,19.5933,-154.9731,71.11,93,100,6.91,US,1713522089
178,manacapuru,-3.2997,-60.6206,75.88,89,99,0.34,BR,1713521827
179,ribadeo,43.5325,-7.0991,59.49,61,7,5.28,ES,1713522091
180,az zuwaytinah,30.9522,20.1202,80.47,38,2,17.85,LY,1713521992
181,georgetown,5.4112,100.3354,90.95,74,20,9.22,MY,1713521899
182,invercargill,-46.4,168.35,46.02,94,100,1.99,NZ,1713521840
183,taoudenni,22.6783,-3.9836,95.47,6,5,4.83,ML,1713522093
184,nova sintra,14.8667,-24.7167,71.87,70,10,13.87,CV,1713522094
185,filey,54.21,-0.2892,48.78,70,89,24.23,GB,1713522095
186,susuman,62.7833,148.1667,18.99,94,73,5.01,RU,1713522095
187,laojunmiao,39.8333,97.7333,49.08,60,100,8.63,CN,1713522096
188,saint-junien,45.8833,0.9,54.84,46,15,4.63,FR,1713522097
189,vila franca do campo,37.7167,-25.4333,64.89,99,48,8.48,PT,1713522097
190,murzuq,25.9155,13.9184,88.2,14,0,7.38,LY,1713522098
191,shendi,16.6915,33.4341,105.22,6,12,15.61,SD,1713521881
192,camana,-16.6228,-72.7111,67.53,88,96,3.67,PE,1713522099
193,tercan,39.7794,40.3925,68.5,35,1,14.18,TR,1713522100
194,tamanrasset,22.785,5.5228,84.11,7,0,3.44,DZ,1713522100
195,cananeia,-25.0147,-47.9267,64.58,84,6,2.46,BR,1713522101
196,mehran,33.1222,46.1646,92.5,13,1,8.72,IR,1713522102
197,twon-brass,4.3151,6.2418,85.32,78,100,11.5,NG,1713522102
198,howard springs,-12.497,131.047,87.71,84,50,6.06,AU,1713522103
199,diu,20.7141,70.9822,92.93,44,0,23.47,IN,1713522104
200,sinabang,2.4803,96.3801,84.99,74,97,9.26,ID,1713522104
201,burang,30.25,81.1667,41.43,55,23,9.4,CN,1713522105
202,nosy varika,-20.5833,48.5333,74.01,72,100,0.67,MG,1713521993
203,nadym,65.5333,72.5167,10.96,72,17,18.32,RU,1713522106
204,portland,45.5234,-122.6762,55.35,47,0,6.91,US,1713521869
205,nichinan,31.6,131.3667,64.42,59,99,2.17,JP,1713521834
206,perry,37.2506,-83.1999,61.52,94,100,5.03,US,1713522108
207,sao joao da barra,-21.6403,-41.0511,71.69,81,100,10.76,BR,1713521824
208,aykhal,66.0,111.5,30.49,88,89,15.43,RU,1713522110
209,amga,60.8953,131.9608,33.96,94,100,5.17,RU,1713522110
210,namibe,-15.1961,12.1522,83.34,64,16,7.72,AO,1713522111
211,tanaina,61.6269,-149.4281,42.24,50,100,8.05,US,1713522113
212,dryden,49.7833,-92.7503,27.05,92,100,11.27,CA,1713522113
213,carnarvon,-24.8667,113.6333,80.94,43,71,14.32,AU,1713522114
214,taltal,-25.4,-70.4833,61.32,86,24,3.67,CL,1713522115
215,rio branco do sul,-25.19,-49.3142,51.33,98,8,2.06,BR,1713522115
216,arteche,12.2645,125.4048,80.38,82,40,6.58,PH,1713522116
217,richards bay,-28.783,32.0377,81.7,55,0,7.36,ZA,1713522117
218,kapuskasing,49.4169,-82.4331,36.77,87,100,7.94,CA,1713522117
219,wajir,1.7471,40.0573,93.16,49,75,6.91,KE,1713522118
220,pangai,-19.8,-174.35,78.75,77,81,18.99,TO,1713521901
221,diamantino,-14.4086,-56.4461,70.97,99,30,2.62,BR,1713522119
222,midvagur,62.0511,-7.1939,38.23,60,75,10.36,FO,1713522120
223,whitehorse,60.7161,-135.0538,25.11,90,67,5.48,CA,1713522121
224,hagere maryam,5.6333,38.2333,71.73,73,85,4.0,ET,1713521911
225,ghazni,33.5536,68.4269,47.57,79,100,4.29,AF,1713522122
226,shibushi,31.4667,131.105,62.33,60,100,1.41,JP,1713521831
227,happy valley-goose bay,53.3168,-60.3315,30.56,76,100,2.42,CA,1713522123
228,ribeira brava,32.65,-17.0667,72.01,79,24,6.8,PT,1713522124
229,vorkuta,67.5,64.0,5.11,81,40,10.0,RU,1713522125
230,zhuzhou,27.8333,113.15,77.13,82,52,8.39,CN,1713522125
231,spring creek,40.7266,-115.5859,34.3,48,78,4.94,US,1713522126
232,utrik,11.2278,169.8474,80.76,84,11,22.1,MH,1713522127
233,bechar,31.6167,-2.2167,77.32,18,40,17.27,DZ,1713522127
234,ciudad lazaro cardenas,17.9583,-102.2,71.47,87,1,3.15,MX,1713522029
235,barah,13.7,30.3667,106.63,4,7,17.22,SD,1713522007
236,kapa'a,22.0752,-159.319,73.38,89,75,19.57,US,1713522130
237,saint-philippe,-21.3585,55.7679,83.79,84,100,13.11,RE,1713522130
238,oguta,5.7089,6.8103,90.21,60,100,6.91,NG,1713521996
239,san antonio de pale,-1.4014,5.6325,83.7,81,99,9.69,GQ,1713522132
240,kralendijk,12.15,-68.2667,80.58,83,20,8.05,BQ,1713522132
241,tambura,5.6,27.4667,90.77,44,94,6.49,SS,1713522133
242,fort bragg,35.139,-79.006,62.82,90,20,4.61,US,1713521880
243,haenam,34.5711,126.5989,61.18,58,100,4.07,KR,1713522134
244,djamaa,33.5339,5.9931,71.4,37,48,13.47,DZ,1713521889
245,lycksele,64.5954,18.6735,33.44,43,100,10.36,SE,1713522135
246,plettenberg bay,-34.0527,23.3716,71.89,67,82,6.26,ZA,1713521847
247,paoua,7.2427,16.4406,100.62,26,93,6.87,CF,1713522136
248,luwuk,-0.9516,122.7875,81.32,89,67,1.05,ID,1713522137
249,obihiro,42.9172,143.2044,48.61,76,75,4.61,JP,1713522138
250,genhe,50.7833,121.5167,34.38,46,87,2.8,CN,1713522138
251,ngozi,-2.9075,29.8306,68.14,86,73,3.53,BI,1713522139
252,iskateley,67.6803,53.1512,8.02,84,62,10.0,RU,1713522140
253,petropavlovsk-kamchatsky,53.0452,158.6483,34.77,95,0,6.71,RU,1713522090
254,akureyri,65.6835,-18.0878,26.53,63,0,9.22,IS,1713522052
255,qaqortoq,60.7167,-46.0333,26.87,96,99,4.23,GL,1713522141
256,ringkobing,56.0901,8.244,43.02,81,75,18.41,DK,1713522142
257,new yekepa,7.5794,-8.5378,86.11,60,67,3.85,LR,1713521992
258,castillos,-34.1667,-53.8333,52.88,93,24,6.13,UY,1713522143
259,enewetak,11.3474,162.3373,81.84,82,69,19.46,MH,1713522144
260,umm kaddadah,13.6017,26.6876,104.79,5,48,16.22,SD,1713522145
261,belen,36.4891,36.2233,69.94,60,40,20.71,TR,1713522146
262,vorgashor,67.5833,63.95,4.8,81,41,9.8,RU,1713522146
263,sola,-13.8833,167.55,82.47,82,95,14.9,VU,1713522147
264,tazacorte,28.629,-17.9293,72.57,83,20,5.99,ES,1713522148
265,kailua-kona,19.6406,-155.9956,75.16,57,0,0.0,US,1713522148
266,ola,59.5833,151.2833,31.14,92,70,4.29,RU,1713522150
267,palamos,41.8484,3.1291,65.44,37,44,3.0,ES,1713522151
268,koumra,8.9126,17.5539,103.1,23,100,6.6,TD,1713522151
269,roma,43.2128,-75.4557,47.08,92,100,9.22,US,1713522152
270,babylon,40.6957,-73.3257,46.8,85,100,6.91,US,1713522153
271,la passe,45.5549,-0.8967,59.23,56,0,2.04,FR,1713522154
272,altamura,40.8292,16.5537,46.96,92,100,8.61,IT,1713522155
273,saint-pierre,-21.3393,55.4781,83.88,54,75,4.61,RE,1713522155
274,micheweni,-4.9667,39.8333,81.55,84,100,14.29,TZ,1713522157
275,recani,31.2846,-4.2688,81.55,14,57,20.33,MA,1713522157
276,fonte boa,-2.4959,-66.2662,73.26,99,100,0.6,BR,1713522158
277,trairi,-3.2778,-39.2689,77.67,95,100,4.47,BR,1713522159
278,saint-francois,46.4154,3.9054,53.65,60,100,11.5,FR,1713522159
279,myrina,39.8797,25.0742,63.64,59,20,12.66,GR,1713522160
280,paranaiba,-19.6772,-51.1908,65.93,94,1,4.65,BR,1713522161
281,vadso,70.0744,29.7487,26.76,54,0,9.22,NO,1713522163
282,daru,-9.0763,143.2092,81.52,87,70,7.7,PG,1713522164
283,as samawah,31.332,45.2944,96.78,11,0,5.19,IQ,1713522164
284,kuanda,56.3161,116.0806,34.66,72,99,0.94,RU,1713522165
285,ovalle,-30.5983,-71.2003,60.04,79,1,1.19,CL,1713522166
286,lihue,21.9789,-159.3672,72.64,86,75,19.57,US,1713522167
287,phang nga,8.4509,98.5298,91.44,58,98,8.88,TH,1713522138
288,mayo-belwa,9.05,12.05,99.39,28,100,8.86,NG,1713522169
289,starogard gdanski,53.964,18.5264,47.1,90,100,10.54,PL,1713522169
290,saldanha,-33.0117,17.9442,77.05,70,100,5.5,ZA,1713522170
291,coxim,-18.5067,-54.76,67.41,71,49,6.29,BR,1713522170
292,lethem,3.3803,-59.7968,77.02,87,100,7.02,GY,1713522171
293,fish town,5.1964,-7.8756,88.59,62,83,3.6,LR,1713521896
294,bam,29.106,58.357,73.08,29,0,8.55,IR,1713522172
295,esmeralda,21.8525,-78.1169,73.56,79,43,6.4,CU,1713522173
296,borzya,50.3833,116.5167,44.11,22,68,9.1,RU,1713522005
297,ponta delgada,37.7333,-25.6667,65.19,82,75,14.97,PT,1713522174
298,furstenfeld,47.05,16.0833,54.97,39,79,5.23,AT,1713522175
299,ancud,-41.8697,-73.8203,50.88,75,68,17.98,CL,1713522175
300,haiku-pauwela,20.9219,-156.3051,73.04,88,75,13.8,US,1713522176
301,melfort,52.8667,-104.6177,20.8,91,100,15.14,CA,1713522176
302,kovdor,67.5662,30.4758,21.43,75,98,7.25,RU,1713522177
303,durant,33.994,-96.3708,57.72,67,100,9.22,US,1713522178
304,tatarsk,55.219,75.9828,53.65,52,56,10.83,RU,1713522178
305,kristiansund,63.1115,7.732,48.85,31,0,2.3,NO,1713522180
306,hengchun,22.0042,120.7439,80.29,74,4,12.08,TW,1713522181
307,qingshuping,27.3817,112.0221,79.81,75,57,2.3,CN,1713522181
308,yambio,4.5721,28.3955,91.02,44,97,5.32,SS,1713522007
309,fortaleza,-3.7227,-38.5247,80.73,89,75,2.3,BR,1713522043
310,quebec,46.8123,-71.2145,42.06,78,93,5.99,CA,1713521934
311,la ronge,55.1001,-105.2842,13.95,90,72,9.64,CA,1713522184
312,chapadinha,-3.7417,-43.3603,73.69,97,99,0.83,BR,1713522185
313,mattoon,39.4831,-88.3728,50.47,87,75,17.27,US,1713522185
314,cabo san lucas,22.8909,-109.9124,72.52,54,0,13.47,MX,1713522186
315,egilsstadir,65.2653,-14.3948,30.11,74,75,8.05,IS,1713522187
316,kiunga,-6.1219,141.2906,77.67,97,100,2.15,PG,1713522187
317,hailar,49.2,119.7,41.9,30,99,10.11,CN,1713522188
318,xuddur,4.1213,43.8894,83.82,60,97,13.42,SO,1713522189
319,buchanan,5.8808,-10.0467,87.73,71,92,4.41,LR,1713522189
320,erbil,36.1926,44.0106,85.82,26,0,8.05,IQ,1713522190
321,concepcion,-36.827,-73.0498,55.2,94,0,2.3,CL,1713522190
322,ust'-ilimsk,58.0006,102.6619,44.44,83,84,5.01,RU,1713522191
323,nabinagar,23.8917,90.9733,95.13,12,7,16.04,BD,1713522192
324,mogadishu,2.0371,45.3438,89.47,74,75,11.5,SO,1713522192
325,warrensburg,38.7628,-93.7361,42.87,78,0,9.22,US,1713522193
326,kourou,5.1552,-52.6478,77.05,90,100,7.85,GF,1713522193
327,flying fish cove,-10.4217,105.6791,82.08,78,75,10.36,CX,1713522194
328,qarauyl,48.9451,79.255,72.75,33,97,13.24,KZ,1713522195
329,reggane,26.7158,0.1714,96.26,6,65,13.44,DZ,1713522195
330,lingyuan,41.24,119.4011,50.94,62,100,5.55,CN,1713522196
331,kedrovyy,56.1667,91.8167,39.61,94,88,16.82,RU,1713522197
332,gijang,35.2442,129.2139,62.33,63,100,9.37,KR,1713522197
333,vulcanesti,45.6842,28.4028,53.85,47,32,5.44,MD,1713522198
334,tuy hoa,13.0833,109.3,85.5,69,0,15.3,VN,1713522029
335,tsiombe,-25.3,45.4833,79.5,51,100,1.97,MG,1713522199
336,pereiro de aguiar,42.3452,-7.8001,67.24,44,0,4.45,ES,1713522200
337,tofol,5.3248,163.0078,81.5,85,100,19.82,FM,1713522200
338,karratha,-20.7377,116.8463,84.25,37,90,6.42,AU,1713522201
339,troy,42.6056,-83.1499,52.83,88,100,6.91,US,1713522202
340,la'ie,21.6477,-157.9253,73.36,78,100,10.0,US,1713522203
341,koungheul,13.9833,-14.8,98.91,5,1,12.17,SN,1713522203
342,sayan,-11.1361,-77.1933,69.66,82,100,1.72,PE,1713522204
343,krong kep,10.4833,104.3167,89.56,58,2,13.56,KH,1713522205
344,beckley,37.7782,-81.1882,63.01,54,40,10.36,US,1713522073
345,cidreira,-30.1811,-50.2056,61.14,91,13,7.36,BR,1713522206
346,coquimbo,-29.9533,-71.3436,56.93,100,100,3.44,CL,1713522207
347,maraba,-5.3686,-49.1178,75.38,100,75,3.44,BR,1713522207
348,lautoka,-17.6167,177.4667,80.46,78,75,3.44,FJ,1713522208
349,zhangjiakou shi xuanhua qu,40.6103,115.0447,54.18,43,100,17.52,CN,1713522074
350,byalynichy,53.9983,29.7126,33.89,100,100,17.67,BY,1713522210
351,fada,9.5667,8.3,93.79,36,74,4.41,NG,1713522210
352,estevan,49.1334,-102.9842,21.54,82,100,18.86,CA,1713522211
353,kenai,60.5544,-151.2583,44.69,62,20,6.91,US,1713522211
354,antofagasta,-23.65,-70.4,67.28,86,2,2.35,CL,1713522212
355,praia da vitoria,38.7333,-27.0667,64.65,72,75,8.19,PT,1713522212
356,san felipe,10.3399,-68.7425,72.34,95,100,0.69,VE,1713522213
357,edeia,-17.3383,-49.9314,70.11,92,76,2.84,BR,1713522214
358,trinity beach,-16.7888,145.6968,78.69,84,100,10.36,AU,1713522074
359,kaspiyskiy,45.3929,47.3707,62.74,62,100,16.64,RU,1713522215
360,tabas,33.5959,56.9244,79.88,17,0,1.99,IR,1713522215
361,chabahar,25.2919,60.643,81.91,48,0,10.89,IR,1713522216
362,melekeok village,7.4957,134.6367,79.36,94,100,0.0,PW,1713522217
363,san miguel,13.4833,-88.1833,77.25,85,36,0.6,SV,1713522218
364,avanigadda,16.0215,80.9181,98.94,40,27,12.08,IN,1713522218
365,kilimatinde,-5.85,34.95,77.11,63,96,7.09,TZ,1713522020
366,mejit,10.2753,170.8646,81.19,86,1,22.08,MH,1713522219
367,ndele,8.4109,20.6473,98.46,30,99,8.03,CF,1713522220
368,santa cruz de bezana,43.4437,-3.9032,59.81,48,0,15.99,ES,1713522220
369,tochio-honcho,37.4667,139.0,51.55,85,70,5.12,JP,1713522221
370,ulan bator,47.9077,106.8832,57.33,13,20,11.18,MN,1713521959
371,safranbolu,41.2508,32.6942,67.98,47,50,5.03,TR,1713522222
372,masuguru,-11.3667,38.4167,82.87,77,95,6.22,TZ,1713522224
373,east london,-33.0153,27.9116,76.14,73,20,8.05,ZA,1713522225
374,ambon,-3.6954,128.1814,84.34,95,40,3.44,ID,1713522226
375,guigang,23.0964,109.6092,87.57,61,48,12.26,CN,1713522127
376,nar'yan-mar,67.6713,53.087,8.11,84,61,10.0,RU,1713522227
377,miandrivazo,-19.5167,45.4667,88.63,42,96,4.05,MG,1713521992
378,kalabagh,32.965,71.557,77.5,48,98,16.73,PK,1713522229
379,yaren,-0.5472,166.916,84.15,75,9,9.08,NR,1713522230
380,mathba,22.2855,89.9629,93.6,51,64,20.69,BD,1713522230
381,basawul,34.2475,70.8722,62.35,79,100,6.93,AF,1713522231
382,arno,60.1167,18.6333,32.79,65,100,11.25,SE,1713522233
383,lakatoro,-16.0999,167.4164,81.12,87,100,9.75,VU,1713522233
384,vangaindrano,-23.35,47.6,78.66,64,100,7.83,MG,1713521992
385,erenhot,43.6475,111.9767,49.23,22,100,6.87,CN,1713522235
386,kalevala,65.2,31.1667,21.09,75,97,11.99,RU,1713522235
387,kichmengskiy gorodok,59.9816,45.7854,40.95,89,100,13.0,RU,1713522236
388,dakhla,23.6848,-15.958,68.02,88,40,11.5,EH,1713522237
389,charlottetown,46.2352,-63.1267,35.2,90,37,7.0,CA,1713522237
390,prado,-17.3411,-39.2208,74.48,89,47,5.64,BR,1713522238
391,swakopmund,-22.6833,14.5333,68.85,78,12,12.73,NA,1713522002
392,valle hermoso,25.6667,-97.8333,77.9,93,88,13.27,MX,1713522239
393,huntsville,34.7304,-86.5861,68.25,95,100,7.0,US,1713522240
394,ulsteinvik,62.3432,5.8487,49.1,55,100,7.0,NO,1713522240
395,sharon,41.2331,-80.4934,57.65,75,100,11.5,US,1713522241
396,new norfolk,-42.7826,147.0587,49.71,93,51,0.65,AU,1713522241
397,ternate,0.8,127.4,82.36,82,95,9.44,ID,1713522242
398,pauini,-7.7136,-66.9764,71.76,98,100,2.51,BR,1713522243
399,tolanaro,-25.0319,46.9987,78.87,69,20,16.11,MG,1713522243
400,kayenta,36.7278,-110.2546,53.91,28,19,8.52,US,1713522244
401,el porvenir,13.7617,-87.3458,76.33,75,87,1.32,HN,1713522245
402,aars,56.804,9.5144,43.79,76,100,19.98,DK,1713522246
403,swift current,50.2834,-107.8014,22.6,96,100,13.85,CA,1713522247
404,rabo de peixe,37.8,-25.5833,63.99,99,75,14.97,PT,1713522248
405,energodar,47.4987,34.6574,51.69,63,81,15.86,UA,1713522249
406,bolivar,37.6145,-93.4105,47.16,80,37,10.98,US,1713522250
407,canutama,-6.5339,-64.3831,74.16,99,99,1.86,BR,1713522250
408,leava,-14.3,-178.1667,84.18,80,94,19.73,WF,1713522251
409,hasaki,35.7333,140.8333,64.8,50,3,14.2,JP,1713521953
410,kalmunai,7.4167,81.8167,87.94,66,22,9.64,LK,1713522254
411,saint-joseph,-21.3667,55.6167,82.78,82,98,11.1,RE,1713522255
412,mugia,43.1041,-9.2179,69.91,67,0,5.75,ES,1713522256
413,belyy yar,53.6039,91.3903,64.29,29,0,26.84,RU,1713522257
414,ghat,24.9647,10.1728,89.64,8,0,0.96,LY,1713522258
415,kolonia town,6.964,158.206,75.2,100,100,4.61,FM,1713522258
416,suva,-18.1416,178.4415,80.08,89,40,5.75,FJ,1713522259
417,govindgarh,27.5,76.9833,104.88,10,3,18.7,IN,1713522260
418,cockburn town,21.4612,-71.1419,75.61,76,69,15.79,TC,1713522261
419,houma,29.5958,-90.7195,72.0,93,75,0.0,US,1713522263
420,beroroha,-21.6667,45.1667,90.86,28,100,3.11,MG,1713521992
421,kapsan-up,41.0903,128.2933,54.46,55,100,3.38,KP,1713522265
422,gagliano del capo,39.8442,18.3695,52.45,93,75,6.91,IT,1713522265
423,shalqar,47.8333,59.6,82.62,24,13,13.47,KZ,1713522266
424,san pedro pochutla,15.7333,-96.4667,76.59,71,92,1.01,MX,1713522267
425,vieste,41.8825,16.175,53.44,76,100,13.76,IT,1713522267
426,mount pearl,47.5166,-52.7813,34.84,97,100,5.99,CA,1713522269
427,margate,51.3813,1.3862,54.9,82,100,11.01,GB,1713522269
428,carutapera,-1.195,-46.02,73.9,99,100,4.68,BR,1713522270
429,saudarkrokur,65.7461,-19.6394,25.34,80,89,10.27,IS,1713522270
430,tabora,-5.0167,32.8,78.42,62,79,9.31,TZ,1713522271
431,papao,-17.75,-149.55,80.28,77,82,17.94,PF,1713522271
432,bantay,17.5847,120.3892,84.78,64,81,3.74,PH,1713522272
433,villazon,-22.0866,-65.5942,45.73,84,0,1.16,BO,1713522273
434,sao paulo de olivenca,-3.3783,-68.8725,73.94,100,100,1.57,BR,1713522274
435,fort valley,32.5538,-83.8874,69.19,94,98,8.05,US,1713522274
436,kalol,22.6,73.45,103.44,18,3,15.21,IN,1713522275
437,terbanggi besar,-4.8667,105.2333,83.41,80,100,4.72,ID,1713522276
438,fauske,67.2588,15.3918,41.04,68,18,8.95,NO,1713522276
439,khilok,51.3674,110.4676,47.84,30,100,4.16,RU,1713522277
440,seminole,28.7086,-81.2081,69.12,86,0,3.44,US,1713522278
441,korla,41.7597,86.1469,72.54,23,2,11.97,CN,1713521985
442,onega,63.9061,38.1404,27.93,70,100,12.82,RU,1713522279
443,punta cardon,11.6581,-70.215,79.36,87,100,18.5,VE,1713522279
444,bedesa,8.9,40.7833,78.28,55,92,4.76,ET,1713522280
445,soure,-0.7167,-48.5233,77.47,93,100,9.6,BR,1713522281
446,hotan,37.0997,79.9269,76.96,14,49,20.29,CN,1713522281
447,colonia,50.9333,6.95,51.96,87,75,13.8,DE,1713522282
448,brady,31.1352,-99.3351,61.25,67,100,12.66,US,1713522283
449,hobyo,5.3505,48.5268,91.26,51,100,2.62,SO,1713522283
450,lospalos,-8.5186,127.0025,73.29,93,100,3.58,TL,1713522284
451,ar ruways,24.1103,52.7306,85.01,34,0,7.65,AE,1713522284
452,morondava,-20.2833,44.2833,84.51,56,100,7.96,MG,1713521992
453,kharkhorin,47.1975,102.8238,59.02,20,88,13.13,MN,1713522286
454,discovery bay,37.9085,-121.6002,60.26,65,0,18.41,US,1713522286
455,mengcheng chengguanzhen,33.2661,116.566,57.15,97,100,9.22,CN,1713522287
456,kuragino,53.8975,92.6725,48.76,70,97,18.21,RU,1713522287
457,kattivakkam,13.2167,80.3167,95.11,67,69,19.6,IN,1713522288
458,maua,-23.6678,-46.4614,63.0,85,22,4.47,BR,1713522289
459,san pedro,14.35,121.0167,91.35,64,20,8.99,PH,1713522290
460,anse royale,-4.7333,55.5167,84.78,74,40,5.75,SC,1713522290
461,den burg,53.0542,4.7972,48.18,85,100,27.16,NL,1713522291
462,kenora,49.8167,-94.4337,27.68,89,100,10.94,CA,1713522291
463,beira,-19.8436,34.8389,84.29,74,40,10.36,MZ,1713522292
464,dubbo,-32.25,148.6167,53.73,94,75,0.0,AU,1713522240
465,pitiquito,30.7,-112.0833,72.84,17,100,5.77,MX,1713522293
466,inari,68.906,27.0288,28.6,71,80,5.88,FI,1713522294
467,msowero,-6.5333,37.2,78.62,76,100,6.78,TZ,1713522033
468,nantucket,41.2835,-70.0995,44.74,93,100,11.5,US,1713522295
469,kyparissia,37.2511,21.6736,67.33,55,4,13.09,GR,1713522297
470,muzaffarpur,26.1167,85.4,108.07,9,0,20.71,IN,1713522037
471,piti village,13.4626,144.6933,83.3,82,20,8.05,GU,1713522298
472,upata,8.0086,-62.3989,77.2,89,100,2.17,VE,1713522299
473,freetown,8.484,-13.2299,83.91,74,40,4.61,SL,1713522299
474,palikir - national government center,6.9248,158.1611,74.14,100,100,4.61,FM,1713522300
475,real,14.6625,121.6047,82.06,75,78,6.69,PH,1713522301
476,smidovich,48.6,133.8167,45.86,88,100,1.57,RU,1713522301
477,la trinite,14.7376,-60.9629,77.05,94,20,2.3,MQ,1713522302
478,nova olimpia,-14.7972,-57.2881,71.22,98,68,1.12,BR,1713522302
479,san luis de la loma,17.2706,-100.8939,76.3,54,0,3.13,MX,1713522303
480,hadibu,12.65,54.0333,87.1,69,25,8.16,YE,1713522304
481,necochea,-38.5473,-58.7368,60.66,84,83,15.64,AR,1713522304
482,pimentel,-6.8367,-79.9342,70.09,73,40,5.75,PE,1713522305
483,pericos,25.05,-107.7,67.39,27,3,0.51,MX,1713522306
484,muisne,0.6,-80.0333,76.51,92,100,4.52,EC,1713522306
485,rio grande,-32.035,-52.0986,55.51,87,3,6.15,BR,1713522307
486,hilo,19.7297,-155.09,71.33,89,100,6.91,US,1713522308
487,dongola,19.1667,30.4833,103.23,8,0,12.19,SD,1713522308
488,acarau,-2.8856,-40.12,78.6,91,100,5.55,BR,1713522309
489,rawson,-43.3002,-65.1023,59.22,40,0,20.18,AR,1713522309
490,bayanhongor,46.7167,100.1167,51.1,18,60,12.77,MN,1713522310
491,galliano,29.4422,-90.2992,72.0,88,0,3.44,US,1713522310
492,karaton,-6.3424,106.1045,81.14,87,85,1.74,ID,1713522311
493,posto fiscal rolim de moura,-13.0833,-62.2667,70.75,98,52,1.28,BR,1713522312
494,tual,-5.6667,132.75,83.61,76,100,7.45,ID,1713522312
495,sao miguel do araguaia,-13.275,-50.1628,75.13,87,88,3.53,BR,1713522313
496,porto de moz,-1.7483,-52.2383,74.61,99,97,1.5,BR,1713522231
497,ayr,55.4627,-4.6339,53.51,66,20,16.11,GB,1713522314
498,nambucca heads,-30.65,153.0,66.2,82,53,8.14,AU,1713522315
499,viqueque,-8.8673,126.3658,77.31,92,100,3.62,TL,1713522315
500,selkirk,50.1436,-96.8845,29.16,88,99,13.4,CA,1713522316
501,argostolion,38.1811,20.489,66.27,59,40,13.8,GR,1713522317
502,yarmouth,41.7057,-70.2286,45.09,89,100,5.75,US,1713522317
503,harstad,68.799,16.5293,38.59,62,22,13.0,NO,1713522319
504,wellington,-41.2866,174.7756,56.86,89,79,9.22,NZ,1713522319
505,pangody,65.85,74.4859,7.5,82,8,17.65,RU,1713522320
506,poronaysk,49.2167,143.1167,39.06,83,100,1.32,RU,1713522320
507,koungou,-12.7336,45.2042,89.31,70,20,10.36,YT,1713522322
508,guane,22.2025,-84.0875,68.27,87,0,6.55,CU,1713522323
509,ad dilinjat,30.8279,30.5363,84.0,21,0,9.17,EG,1713522324
510,keflavik,64.0049,-22.5624,36.03,75,0,12.66,IS,1713522294
511,scarborough,54.2797,-0.4044,48.65,69,89,5.99,GB,1713522325
512,mizdah,31.4451,12.9801,76.19,33,28,17.4,LY,1713522326
513,puerto armuelles,8.2833,-82.8667,83.08,57,100,1.01,PA,1713522326
514,nzega,-2.479,29.5564,68.11,80,80,5.03,RW,1713522327
515,nagykallo,47.8749,21.8408,49.78,58,96,5.1,HU,1713522328
516,kerikeri,-35.2268,173.9474,61.16,91,100,3.0,NZ,1713522329
517,alofi,-19.0595,-169.9187,78.69,89,20,8.05,NU,1713522329
518,qurayyat,31.3318,37.3428,82.58,17,0,6.91,SA,1713522330
519,nadi,-17.8,177.4167,80.6,78,75,3.44,FJ,1713522330
520,jucurutu,-6.0339,-37.0203,80.47,81,100,4.29,BR,1713522332
521,zeya,53.75,127.2667,37.49,80,100,2.13,RU,1713522332
522,tezu,27.9167,96.1667,77.14,58,100,4.56,IN,1713522333
523,mamontovo,52.7055,81.6244,62.02,37,53,13.31,RU,1713522334
524,dadukou,26.5479,101.7054,77.65,47,48,3.62,CN,1713522336
525,hammerfest,70.6634,23.6821,32.45,47,0,13.8,NO,1713522337
526,taghazout,30.5426,-9.7112,68.77,71,100,5.46,MA,1713522342
527,temiskaming shores,47.4938,-79.7153,39.2,92,100,4.61,CA,1713522345
528,chul'man,56.8479,124.9104,34.29,99,100,4.0,RU,1713522349
529,pingliang,35.5392,106.6861,63.54,39,53,14.43,CN,1713522349
530,urzhar,47.093,81.6294,73.56,33,18,2.17,KZ,1713522350
531,el viejo,12.6633,-87.1672,81.12,72,42,3.11,NI,1713522350
532,karachev,53.1229,34.9852,41.32,91,100,19.93,RU,1713522351
533,joshimath,30.5667,79.5667,71.44,38,77,10.2,IN,1713522351
534,leopoldina,-21.5319,-42.6431,66.07,90,100,1.28,BR,1713522352
535,berbera,10.4396,45.0143,91.58,61,72,13.09,SO,1713522353
536,conduaga,8.862,117.4893,83.8,75,91,3.53,PH,1713522353
537,smithers,54.7804,-127.1743,36.46,78,30,2.01,CA,1713522354
538,nchelenge,-9.3451,28.734,79.81,61,90,1.01,ZM,1713522354
539,novaya igirma,57.1334,103.9112,49.21,68,25,5.19,RU,1713522355
540,ippy,6.2679,21.2247,93.97,38,93,7.29,CF,1713522356
541,robertsganj,24.7,83.0667,106.47,11,27,21.34,IN,1713522357
542,horta,38.5333,-28.6333,63.01,89,75,13.8,PT,1713522358
543,mazagao,-0.115,-51.2894,78.85,99,100,2.71,BR,1713522360
544,magong,23.5654,119.5863,76.1,89,55,3.15,TW,1713522062
545,kargasok,59.0556,80.8572,33.96,96,93,21.99,RU,1713522361
546,marsh harbour,26.5412,-77.0636,71.69,74,71,5.53,BS,1713522362
547,tayu,-6.5397,111.0518,84.02,78,99,6.64,ID,1713522362
548,hambergen,53.3167,8.8333,51.94,82,100,16.04,DE,1713522363
549,galesong,-5.3166,119.3661,86.02,77,86,4.25,ID,1713522364
550,bahia blanca,-38.7196,-62.2724,63.16,78,100,12.91,AR,1713522365
551,flin flon,54.7682,-101.865,17.78,87,100,14.12,CA,1713522365
552,salida,37.7058,-121.0849,61.14,73,0,4.61,US,1713522366
553,lagunas,-5.2269,-75.6753,70.39,97,95,2.15,PE,1713522367
554,richmond,37.5538,-77.4603,54.41,91,100,6.91,US,1713522367
555,muroto-misakicho,33.2833,134.15,64.99,62,100,3.27,JP,1713522086
556,cooper's town,26.8667,-77.5167,72.27,75,45,5.37,BS,1713522368
557,priargunsk,50.3691,119.1012,40.46,30,91,7.99,RU,1713522369
558,polyarnyy,69.1989,33.4478,17.6,74,4,12.97,RU,1713522073
559,taulaga,-11.0553,-171.0883,85.53,75,88,14.85,AS,1713522370
560,marrakesh,31.6315,-8.0083,62.67,77,75,9.22,MA,1713522371
561,manzhouli,49.6,117.4333,43.38,22,26,11.48,CN,1713522373
562,bairnsdale,-37.8333,147.6167,53.06,96,20,3.58,AU,1713522373
563,lerwick,60.1545,-1.1494,41.0,58,100,28.77,GB,1713522374
564,pisco,-13.7,-76.2167,66.25,88,75,4.61,PE,1713522375
565,calca,-13.3333,-71.95,51.15,87,100,1.36,PE,1713522375
566,catemaco,18.4167,-95.1167,72.21,82,9,2.51,MX,1713522376
567,magadan,59.5667,150.8,30.52,95,40,4.56,RU,1713522376
568,coahuayana de hidalgo,18.7,-103.6583,69.22,70,3,1.23,MX,1713522377
569,villa gesell,-37.2639,-56.973,56.05,91,49,13.76,AR,1713522378
570,capao da canoa,-29.7456,-50.0097,63.41,81,3,4.12,BR,1713522378
571,al fujairah city,25.1164,56.3414,82.53,61,20,8.05,AE,1713522379
572,kingman,35.1894,-114.053,65.26,28,0,6.91,US,1713522379
573,ciudad melchor muzquiz,27.8833,-101.5167,77.38,74,3,4.92,MX,1713522380
574,westport,41.1415,-73.3579,46.38,78,100,5.75,US,1713522381
575,agua prieta,31.3,-109.5667,59.99,23,0,6.91,MX,1713522382
576,nkowakowa,-23.8878,30.2871,85.87,36,0,3.94,ZA,1713522382
577,borodulikha,50.7184,80.9295,70.02,53,100,14.67,KZ,1713522383
578,kolonia,50.9333,6.95,51.96,87,75,13.8,DE,1713522282
579,isiklar,36.9942,40.1264,78.58,38,0,7.81,TR,1713522385
580,gisborne,-38.6533,178.0042,60.42,76,100,6.2,NZ,1713522152
581,chauvigny,46.5675,0.6493,59.23,64,15,10.56,FR,1713522386
